{
"type": "FeatureCollection",
"name": "CountriesPopPoint",
"crs": { "type": "name", "properties": { "name": "urn:ogc:def:crs:OGC:1.3:CRS84" } },
"features": [
{ "type": "Feature", "properties": { "id": "AFG", "name": "Afghanistan", "Entity": "Afghanistan", "Code": "AFG", "Year": 2023, "PopDensity": 63.558502 }, "geometry": { "type": "Point", "coordinates": [ 66.086690173446385, 33.856399243318513 ] } },
{ "type": "Feature", "properties": { "id": "AGO", "name": "Angola", "Entity": "Angola", "Code": "AGO", "Year": 2023, "PopDensity": 29.477747 }, "geometry": { "type": "Point", "coordinates": [ 17.470572472744323, -12.245868967981588 ] } },
{ "type": "Feature", "properties": { "id": "ALB", "name": "Albania", "Entity": "Albania", "Code": "ALB", "Year": 2023, "PopDensity": 102.615326 }, "geometry": { "type": "Point", "coordinates": [ 20.03242638605213, 41.141353367768708 ] } },
{ "type": "Feature", "properties": { "id": "ARE", "name": "United Arab Emirates", "Entity": "United Arab Emirates", "Code": "ARE", "Year": 2023, "PopDensity": 149.84637 }, "geometry": { "type": "Point", "coordinates": [ 54.206714622533653, 23.868633515147419 ] } },
{ "type": "Feature", "properties": { "id": "ARG", "name": "Argentina", "Entity": "Argentina", "Code": "ARG", "Year": 2023, "PopDensity": 16.639957 }, "geometry": { "type": "Point", "coordinates": [ -65.175360659691194, -35.446821387094552 ] } },
{ "type": "Feature", "properties": { "id": "ARM", "name": "Armenia", "Entity": "Armenia", "Code": "ARM", "Year": 2023, "PopDensity": 103.38584 }, "geometry": { "type": "Point", "coordinates": [ 45.0002902364525, 40.216607463317942 ] } },
{ "type": "Feature", "properties": { "id": "AUS", "name": "Australia", "Entity": "Australia", "Code": "AUS", "Year": 2023, "PopDensity": 3.438775 }, "geometry": { "type": "Point", "coordinates": [ 134.50277546065476, -25.73065474488304 ] } },
{ "type": "Feature", "properties": { "id": "AUT", "name": "Austria", "Entity": "Austria", "Code": "AUT", "Year": 2023, "PopDensity": 110.6451 }, "geometry": { "type": "Point", "coordinates": [ 14.076158737088777, 47.613948736740717 ] } },
{ "type": "Feature", "properties": { "id": "AZE", "name": "Azerbaijan", "Entity": "Azerbaijan", "Code": "AZE", "Year": 2023, "PopDensity": 124.842224 }, "geometry": { "type": "Point", "coordinates": [ 47.553909627631946, 40.22069070796514 ] } },
{ "type": "Feature", "properties": { "id": "BDI", "name": "Burundi", "Entity": "Burundi", "Code": "BDI", "Year": 2023, "PopDensity": 533.0785 }, "geometry": { "type": "Point", "coordinates": [ 29.91390108115306, -3.377391780507063 ] } },
{ "type": "Feature", "properties": { "id": "BEL", "name": "Belgium", "Entity": "Belgium", "Code": "BEL", "Year": 2023, "PopDensity": 386.8195 }, "geometry": { "type": "Point", "coordinates": [ 4.580831170355562, 50.652442788532966 ] } },
{ "type": "Feature", "properties": { "id": "BEN", "name": "Benin", "Entity": "Benin", "Code": "BEN", "Year": 2023, "PopDensity": 125.142204 }, "geometry": { "type": "Point", "coordinates": [ 2.337377658283674, 9.647430604325601 ] } },
{ "type": "Feature", "properties": { "id": "BFA", "name": "Burkina Faso", "Entity": "Burkina Faso", "Code": "BFA", "Year": 2023, "PopDensity": 84.15855 }, "geometry": { "type": "Point", "coordinates": [ -1.77653739321549, 12.311650411193026 ] } },
{ "type": "Feature", "properties": { "id": "BGD", "name": "Bangladesh", "Entity": "Bangladesh", "Code": "BGD", "Year": 2023, "PopDensity": 1317.2543 }, "geometry": { "type": "Point", "coordinates": [ 90.267928366337088, 23.839461928066164 ] } },
{ "type": "Feature", "properties": { "id": "BGR", "name": "Bulgaria", "Entity": "Bulgaria", "Code": "BGR", "Year": 2023, "PopDensity": 62.59952 }, "geometry": { "type": "Point", "coordinates": [ 25.195110896460289, 42.753118773003436 ] } },
{ "type": "Feature", "properties": { "id": "BHS", "name": "The Bahamas", "Entity": "Bahamas", "Code": "BHS", "Year": 2023, "PopDensity": 39.905296 }, "geometry": { "type": "Point", "coordinates": [ -77.929970803935163, 25.515491725336627 ] } },
{ "type": "Feature", "properties": { "id": "BIH", "name": "Bosnia and Herzegovina", "Entity": "Bosnia and Herzegovina", "Code": "BIH", "Year": 2023, "PopDensity": 62.20842 }, "geometry": { "type": "Point", "coordinates": [ 17.816883262474374, 44.180768003890741 ] } },
{ "type": "Feature", "properties": { "id": "BLR", "name": "Belarus", "Entity": "Belarus", "Code": "BLR", "Year": 2023, "PopDensity": 44.91589 }, "geometry": { "type": "Point", "coordinates": [ 27.981354019495701, 53.506344352815098 ] } },
{ "type": "Feature", "properties": { "id": "BLZ", "name": "Belize", "Entity": "Belize", "Code": "BLZ", "Year": 2023, "PopDensity": 18.023455 }, "geometry": { "type": "Point", "coordinates": [ -88.703421269843332, 17.197089795199389 ] } },
{ "type": "Feature", "properties": { "id": "BMU", "name": "Bermuda", "Entity": "Bermuda", "Code": "BMU", "Year": 2023, "PopDensity": 1198.537 }, "geometry": { "type": "Point", "coordinates": [ -64.759642831906703, 32.312492698902709 ] } },
{ "type": "Feature", "properties": { "id": "BOL", "name": "Bolivia", "Entity": "Bolivia", "Code": "BOL", "Year": 2023, "PopDensity": 11.30265 }, "geometry": { "type": "Point", "coordinates": [ -64.641405609888551, -16.728986949758749 ] } },
{ "type": "Feature", "properties": { "id": "BRA", "name": "Brazil", "Entity": "Brazil", "Code": "BRA", "Year": 2023, "PopDensity": 25.261688 }, "geometry": { "type": "Point", "coordinates": [ -53.054339956839804, -10.806773681852473 ] } },
{ "type": "Feature", "properties": { "id": "BRN", "name": "Brunei", "Entity": "Brunei", "Code": "BRN", "Year": 2023, "PopDensity": 87.089 }, "geometry": { "type": "Point", "coordinates": [ 114.915108813069907, 4.690250696299431 ] } },
{ "type": "Feature", "properties": { "id": "BTN", "name": "Bhutan", "Entity": "Bhutan", "Code": "BTN", "Year": 2023, "PopDensity": 20.618433 }, "geometry": { "type": "Point", "coordinates": [ 90.472424886173926, 27.427968650300976 ] } },
{ "type": "Feature", "properties": { "id": "BWA", "name": "Botswana", "Entity": "Botswana", "Code": "BWA", "Year": 2023, "PopDensity": 4.3764086 }, "geometry": { "type": "Point", "coordinates": [ 23.773081475874147, -22.099711410350604 ] } },
{ "type": "Feature", "properties": { "id": "CAF", "name": "Central African Republic", "Entity": "Central African Republic", "Code": "CAF", "Year": 2023, "PopDensity": 8.270597 }, "geometry": { "type": "Point", "coordinates": [ 20.374346983937301, 6.542778839030211 ] } },
{ "type": "Feature", "properties": { "id": "CAN", "name": "Canada", "Entity": "Canada", "Code": "CAN", "Year": 2023, "PopDensity": 4.4715486 }, "geometry": { "type": "Point", "coordinates": [ -98.142381218196405, 61.46907618621389 ] } },
{ "type": "Feature", "properties": { "id": "CHE", "name": "Switzerland", "Entity": "Switzerland", "Code": "CHE", "Year": 2023, "PopDensity": 224.51651 }, "geometry": { "type": "Point", "coordinates": [ 8.118300753356499, 46.791737781866615 ] } },
{ "type": "Feature", "properties": { "id": "CHL", "name": "Chile", "Entity": "Chile", "Code": "CHL", "Year": 2023, "PopDensity": 26.439795 }, "geometry": { "type": "Point", "coordinates": [ -71.520643842694156, -39.047014187523381 ] } },
{ "type": "Feature", "properties": { "id": "CHN", "name": "China", "Entity": "China", "Code": "CHN", "Year": 2023, "PopDensity": 151.52888 }, "geometry": { "type": "Point", "coordinates": [ 103.883616207751061, 36.555068505933043 ] } },
{ "type": "Feature", "properties": { "id": "CIV", "name": "Ivory Coast", "Entity": "Cote d'Ivoire", "Code": "CIV", "Year": 2023, "PopDensity": 98.005196 }, "geometry": { "type": "Point", "coordinates": [ -5.612043679188234, 7.553755039532442 ] } },
{ "type": "Feature", "properties": { "id": "CMR", "name": "Cameroon", "Entity": "Cameroon", "Code": "CMR", "Year": 2023, "PopDensity": 60.02134 }, "geometry": { "type": "Point", "coordinates": [ 12.611552456953563, 5.663098262285096 ] } },
{ "type": "Feature", "properties": { "id": "COD", "name": "Democratic Republic of the Congo", "Entity": "Democratic Republic of Congo", "Code": "COD", "Year": 2023, "PopDensity": 46.664055 }, "geometry": { "type": "Point", "coordinates": [ 23.582955887560278, -2.85027562333238 ] } },
{ "type": "Feature", "properties": { "id": "COG", "name": "Republic of the Congo", "Entity": "Congo", "Code": "COG", "Year": 2023, "PopDensity": 18.105093 }, "geometry": { "type": "Point", "coordinates": [ 15.134461756195169, -0.837800973753403 ] } },
{ "type": "Feature", "properties": { "id": "COL", "name": "Colombia", "Entity": "Colombia", "Code": "COL", "Year": 2023, "PopDensity": 47.157413 }, "geometry": { "type": "Point", "coordinates": [ -73.077732032536474, 3.927213847920398 ] } },
{ "type": "Feature", "properties": { "id": "CRI", "name": "Costa Rica", "Entity": "Costa Rica", "Code": "CRI", "Year": 2023, "PopDensity": 99.99074 }, "geometry": { "type": "Point", "coordinates": [ -84.175423161074789, 9.965671026982957 ] } },
{ "type": "Feature", "properties": { "id": "CUB", "name": "Cuba", "Entity": "Cuba", "Code": "CUB", "Year": 2023, "PopDensity": 106.16504 }, "geometry": { "type": "Point", "coordinates": [ -78.960684874481601, 21.631751486104132 ] } },
{ "type": "Feature", "properties": { "id": "CYP", "name": "Cyprus", "Entity": "Cyprus", "Code": "CYP", "Year": 2023, "PopDensity": 145.5605 }, "geometry": { "type": "Point", "coordinates": [ 33.039553870938605, 34.90706080017096 ] } },
{ "type": "Feature", "properties": { "id": "CZE", "name": "Czech Republic", "Entity": "Czechia", "Code": "CZE", "Year": 2023, "PopDensity": 140.0462 }, "geometry": { "type": "Point", "coordinates": [ 15.334558261592839, 49.775245261027486 ] } },
{ "type": "Feature", "properties": { "id": "DEU", "name": "Germany", "Entity": "Germany", "Code": "DEU", "Year": 2023, "PopDensity": 241.98813 }, "geometry": { "type": "Point", "coordinates": [ 10.288485064046565, 51.133722711258805 ] } },
{ "type": "Feature", "properties": { "id": "DJI", "name": "Djibouti", "Entity": "Djibouti", "Code": "DJI", "Year": 2023, "PopDensity": 49.73904 }, "geometry": { "type": "Point", "coordinates": [ 42.498019696806395, 11.773044433321944 ] } },
{ "type": "Feature", "properties": { "id": "DNK", "name": "Denmark", "Entity": "Denmark", "Code": "DNK", "Year": 2023, "PopDensity": 148.70335 }, "geometry": { "type": "Point", "coordinates": [ 9.876372826363481, 56.063934567763965 ] } },
{ "type": "Feature", "properties": { "id": "DOM", "name": "Dominican Republic", "Entity": "Dominican Republic", "Code": "DOM", "Year": 2023, "PopDensity": 238.39743 }, "geometry": { "type": "Point", "coordinates": [ -70.462358465049647, 18.884487060271649 ] } },
{ "type": "Feature", "properties": { "id": "DZA", "name": "Algeria", "Entity": "Algeria", "Code": "DZA", "Year": 2023, "PopDensity": 19.382553 }, "geometry": { "type": "Point", "coordinates": [ 2.598047814474601, 28.185481292453204 ] } },
{ "type": "Feature", "properties": { "id": "ECU", "name": "Ecuador", "Entity": "Ecuador", "Code": "ECU", "Year": 2023, "PopDensity": 72.395226 }, "geometry": { "type": "Point", "coordinates": [ -78.384166722429754, -1.454771741077084 ] } },
{ "type": "Feature", "properties": { "id": "EGY", "name": "Egypt", "Entity": "Egypt", "Code": "EGY", "Year": 2023, "PopDensity": 115.05929 }, "geometry": { "type": "Point", "coordinates": [ 29.844461516983504, 26.50661999740764 ] } },
{ "type": "Feature", "properties": { "id": "ERI", "name": "Eritrea", "Entity": "Eritrea", "Code": "ERI", "Year": 2023, "PopDensity": 28.671251 }, "geometry": { "type": "Point", "coordinates": [ 38.678177332848904, 15.427275615053311 ] } },
{ "type": "Feature", "properties": { "id": "ESP", "name": "Spain", "Entity": "Spain", "Code": "ESP", "Year": 2023, "PopDensity": 95.87432 }, "geometry": { "type": "Point", "coordinates": [ -3.617020675956449, 40.348656154214375 ] } },
{ "type": "Feature", "properties": { "id": "EST", "name": "Estonia", "Entity": "Estonia", "Code": "EST", "Year": 2023, "PopDensity": 31.981146 }, "geometry": { "type": "Point", "coordinates": [ 25.824728223109098, 58.643695211078615 ] } },
{ "type": "Feature", "properties": { "id": "ETH", "name": "Ethiopia", "Entity": "Ethiopia", "Code": "ETH", "Year": 2023, "PopDensity": 114.03063 }, "geometry": { "type": "Point", "coordinates": [ 39.551255795929343, 8.653999193325815 ] } },
{ "type": "Feature", "properties": { "id": "FIN", "name": "Finland", "Entity": "Finland", "Code": "FIN", "Year": 2023, "PopDensity": 18.428122 }, "geometry": { "type": "Point", "coordinates": [ 26.211764688890245, 64.504093867050315 ] } },
{ "type": "Feature", "properties": { "id": "FJI", "name": "Fiji", "Entity": "Fiji", "Code": "FJI", "Year": 2023, "PopDensity": 50.582924 }, "geometry": { "type": "Point", "coordinates": [ 163.853146688034883, -17.316309174864958 ] } },
{ "type": "Feature", "properties": { "id": "FLK", "name": "Falkland Islands", "Entity": "Falkland Islands", "Code": "FLK", "Year": 2023, "PopDensity": 0.2874281 }, "geometry": { "type": "Point", "coordinates": [ -59.420972793110195, -51.71322176551184 ] } },
{ "type": "Feature", "properties": { "id": "FRA", "name": "France", "Entity": "France", "Code": "FRA", "Year": 2023, "PopDensity": 121.33682 }, "geometry": { "type": "Point", "coordinates": [ 2.446568757427332, 46.535962010171119 ] } },
{ "type": "Feature", "properties": { "id": "GAB", "name": "Gabon", "Entity": "Gabon", "Code": "GAB", "Year": 2023, "PopDensity": 9.643304 }, "geometry": { "type": "Point", "coordinates": [ 11.687751178626524, -0.647048217570112 ] } },
{ "type": "Feature", "properties": { "id": "GBR", "name": "United Kingdom", "Entity": "United Kingdom", "Code": "GBR", "Year": 2023, "PopDensity": 283.89603 }, "geometry": { "type": "Point", "coordinates": [ -2.853135549593862, 53.914773538359306 ] } },
{ "type": "Feature", "properties": { "id": "GEO", "name": "Georgia", "Entity": "Georgia", "Code": "GEO", "Year": 2023, "PopDensity": 54.79197 }, "geometry": { "type": "Point", "coordinates": [ 43.481540105444182, 42.162018941351377 ] } },
{ "type": "Feature", "properties": { "id": "GHA", "name": "Ghana", "Entity": "Ghana", "Code": "GHA", "Year": 2023, "PopDensity": 148.49677 }, "geometry": { "type": "Point", "coordinates": [ -1.236968481719099, 7.928651850055787 ] } },
{ "type": "Feature", "properties": { "id": "GIN", "name": "Guinea", "Entity": "Guinea", "Code": "GIN", "Year": 2023, "PopDensity": 58.625546 }, "geometry": { "type": "Point", "coordinates": [ -11.060853680804723, 10.448272958512803 ] } },
{ "type": "Feature", "properties": { "id": "GMB", "name": "Gambia", "Entity": "Gambia", "Code": "GMB", "Year": 2023, "PopDensity": 266.5858 }, "geometry": { "type": "Point", "coordinates": [ -15.431873125070858, 13.475334412500354 ] } },
{ "type": "Feature", "properties": { "id": "GNB", "name": "Guinea Bissau", "Entity": "Guinea-Bissau", "Code": "GNB", "Year": 2023, "PopDensity": 76.57696 }, "geometry": { "type": "Point", "coordinates": [ -15.110623891988213, 12.022704479025894 ] } },
{ "type": "Feature", "properties": { "id": "GNQ", "name": "Equatorial Guinea", "Entity": "Equatorial Guinea", "Code": "GNQ", "Year": 2023, "PopDensity": 65.86652 }, "geometry": { "type": "Point", "coordinates": [ 10.366031310571556, 1.645864427235488 ] } },
{ "type": "Feature", "properties": { "id": "GRC", "name": "Greece", "Entity": "Greece", "Code": "GRC", "Year": 2023, "PopDensity": 79.464 }, "geometry": { "type": "Point", "coordinates": [ 22.719813459686637, 39.066716005193953 ] } },
{ "type": "Feature", "properties": { "id": "GRL", "name": "Greenland", "Entity": "Greenland", "Code": "GRL", "Year": 2023, "PopDensity": 0.13631624 }, "geometry": { "type": "Point", "coordinates": [ -41.500181114326452, 74.770487694135724 ] } },
{ "type": "Feature", "properties": { "id": "GTM", "name": "Guatemala", "Entity": "Guatemala", "Code": "GTM", "Year": 2023, "PopDensity": 169.13812 }, "geometry": { "type": "Point", "coordinates": [ -90.369458506008542, 15.699360539402393 ] } },
{ "type": "Feature", "properties": { "id": "GUF", "name": "French Guiana", "Entity": "French Guiana", "Code": "GUF", "Year": 2023, "PopDensity": 3.6639173 }, "geometry": { "type": "Point", "coordinates": [ -53.238506104658583, 3.905933679159749 ] } },
{ "type": "Feature", "properties": { "id": "GUY", "name": "Guyana", "Entity": "Guyana", "Code": "GUY", "Year": 2023, "PopDensity": 4.197917 }, "geometry": { "type": "Point", "coordinates": [ -58.971203123744111, 4.790225358669177 ] } },
{ "type": "Feature", "properties": { "id": "HND", "name": "Honduras", "Entity": "Honduras", "Code": "HND", "Year": 2023, "PopDensity": 95.13679 }, "geometry": { "type": "Point", "coordinates": [ -86.58996381210828, 14.822947067195949 ] } },
{ "type": "Feature", "properties": { "id": "HRV", "name": "Croatia", "Entity": "Croatia", "Code": "HRV", "Year": 2023, "PopDensity": 69.62159 }, "geometry": { "type": "Point", "coordinates": [ 16.56619110394417, 45.016234102778263 ] } },
{ "type": "Feature", "properties": { "id": "HTI", "name": "Haiti", "Entity": "Haiti", "Code": "HTI", "Year": 2023, "PopDensity": 422.25696 }, "geometry": { "type": "Point", "coordinates": [ -72.658013455172451, 18.900700951731231 ] } },
{ "type": "Feature", "properties": { "id": "HUN", "name": "Hungary", "Entity": "Hungary", "Code": "HUN", "Year": 2023, "PopDensity": 106.14139 }, "geometry": { "type": "Point", "coordinates": [ 19.357628548023534, 47.199951195081283 ] } },
{ "type": "Feature", "properties": { "id": "IDN", "name": "Indonesia", "Entity": "Indonesia", "Code": "IDN", "Year": 2023, "PopDensity": 148.57692 }, "geometry": { "type": "Point", "coordinates": [ 117.423407943518257, -2.221738041335868 ] } },
{ "type": "Feature", "properties": { "id": "IND", "name": "India", "Entity": "India", "Code": "IND", "Year": 2023, "PopDensity": 483.67902 }, "geometry": { "type": "Point", "coordinates": [ 79.593703664385089, 22.925006300070315 ] } },
{ "type": "Feature", "properties": { "id": "IRL", "name": "Ireland", "Entity": "Ireland", "Code": "IRL", "Year": 2023, "PopDensity": 75.43372 }, "geometry": { "type": "Point", "coordinates": [ -8.01023680654156, 53.180591089490449 ] } },
{ "type": "Feature", "properties": { "id": "IRN", "name": "Iran", "Entity": "Iran", "Code": "IRN", "Year": 2023, "PopDensity": 55.84512 }, "geometry": { "type": "Point", "coordinates": [ 54.285451492991996, 32.518917306489975 ] } },
{ "type": "Feature", "properties": { "id": "IRQ", "name": "Iraq", "Entity": "Iraq", "Code": "IRQ", "Year": 2023, "PopDensity": 103.826645 }, "geometry": { "type": "Point", "coordinates": [ 43.756911464164439, 33.036822536896658 ] } },
{ "type": "Feature", "properties": { "id": "ISL", "name": "Iceland", "Entity": "Iceland", "Code": "ISL", "Year": 2023, "PopDensity": 3.8436873 }, "geometry": { "type": "Point", "coordinates": [ -18.761028817121847, 65.074276342814329 ] } },
{ "type": "Feature", "properties": { "id": "ISR", "name": "Israel", "Entity": "Israel", "Code": "ISR", "Year": 2023, "PopDensity": 427.7408 }, "geometry": { "type": "Point", "coordinates": [ 35.003849962674103, 31.484917756757323 ] } },
{ "type": "Feature", "properties": { "id": "ITA", "name": "Italy", "Entity": "Italy", "Code": "ITA", "Year": 2023, "PopDensity": 201.20403 }, "geometry": { "type": "Point", "coordinates": [ 12.140788356331674, 42.751182763651506 ] } },
{ "type": "Feature", "properties": { "id": "JAM", "name": "Jamaica", "Entity": "Jamaica", "Code": "JAM", "Year": 2023, "PopDensity": 262.2147 }, "geometry": { "type": "Point", "coordinates": [ -77.324254740848005, 18.137635986094782 ] } },
{ "type": "Feature", "properties": { "id": "JOR", "name": "Jordan", "Entity": "Jordan", "Code": "JOR", "Year": 2023, "PopDensity": 128.82874 }, "geometry": { "type": "Point", "coordinates": [ 36.779454988821506, 31.245490666265262 ] } },
{ "type": "Feature", "properties": { "id": "JPN", "name": "Japan", "Entity": "Japan", "Code": "JPN", "Year": 2023, "PopDensity": 341.20972 }, "geometry": { "type": "Point", "coordinates": [ 138.064961867938734, 37.663110587432655 ] } },
{ "type": "Feature", "properties": { "id": "KAZ", "name": "Kazakhstan", "Entity": "Kazakhstan", "Code": "KAZ", "Year": 2023, "PopDensity": 7.530506 }, "geometry": { "type": "Point", "coordinates": [ 67.284608787180744, 48.191662125259384 ] } },
{ "type": "Feature", "properties": { "id": "KEN", "name": "Kenya", "Entity": "Kenya", "Code": "KEN", "Year": 2023, "PopDensity": 97.23268 }, "geometry": { "type": "Point", "coordinates": [ 37.791555237645639, 0.595966291771891 ] } },
{ "type": "Feature", "properties": { "id": "KGZ", "name": "Kyrgyzstan", "Entity": "Kyrgyzstan", "Code": "KGZ", "Year": 2023, "PopDensity": 36.87968 }, "geometry": { "type": "Point", "coordinates": [ 74.620404632065572, 41.506893570076087 ] } },
{ "type": "Feature", "properties": { "id": "KHM", "name": "Cambodia", "Entity": "Cambodia", "Code": "KHM", "Year": 2023, "PopDensity": 98.70769 }, "geometry": { "type": "Point", "coordinates": [ 104.876085213202884, 12.684728701098114 ] } },
{ "type": "Feature", "properties": { "id": "KOR", "name": "South Korea", "Entity": "South Korea", "Code": "KOR", "Year": 2023, "PopDensity": 530.2125 }, "geometry": { "type": "Point", "coordinates": [ 127.821317166209738, 36.427598722257088 ] } },
{ "type": "Feature", "properties": { "id": "KWT", "name": "Kuwait", "Entity": "Kuwait", "Code": "KWT", "Year": 2023, "PopDensity": 271.53647 }, "geometry": { "type": "Point", "coordinates": [ 47.600098624946071, 29.307266735295329 ] } },
{ "type": "Feature", "properties": { "id": "LAO", "name": "Laos", "Entity": "Laos", "Code": "LAO", "Year": 2023, "PopDensity": 33.21058 }, "geometry": { "type": "Point", "coordinates": [ 103.75025970028895, 18.444978189083884 ] } },
{ "type": "Feature", "properties": { "id": "LBN", "name": "Lebanon", "Entity": "Lebanon", "Code": "LBN", "Year": 2023, "PopDensity": 564.3687 }, "geometry": { "type": "Point", "coordinates": [ 35.870986399455539, 33.911827121169445 ] } },
{ "type": "Feature", "properties": { "id": "LBR", "name": "Liberia", "Entity": "Liberia", "Code": "LBR", "Year": 2023, "PopDensity": 57.029007 }, "geometry": { "type": "Point", "coordinates": [ -9.410836102614711, 6.431619946346841 ] } },
{ "type": "Feature", "properties": { "id": "LBY", "name": "Libya", "Entity": "Libya", "Code": "LBY", "Year": 2023, "PopDensity": 4.1520286 }, "geometry": { "type": "Point", "coordinates": [ 17.974352720239533, 26.997460440963433 ] } },
{ "type": "Feature", "properties": { "id": "LKA", "name": "Sri Lanka", "Entity": "Sri Lanka", "Code": "LKA", "Year": 2023, "PopDensity": 371.34845 }, "geometry": { "type": "Point", "coordinates": [ 80.667235787751082, 7.700534337706256 ] } },
{ "type": "Feature", "properties": { "id": "LSO", "name": "Lesotho", "Entity": "Lesotho", "Code": "LSO", "Year": 2023, "PopDensity": 76.135574 }, "geometry": { "type": "Point", "coordinates": [ 28.170105291093051, -29.625290677812963 ] } },
{ "type": "Feature", "properties": { "id": "LTU", "name": "Lithuania", "Entity": "Lithuania", "Code": "LTU", "Year": 2023, "PopDensity": 45.58545 }, "geometry": { "type": "Point", "coordinates": [ 23.880640361296749, 55.284319424545075 ] } },
{ "type": "Feature", "properties": { "id": "LUX", "name": "Luxembourg", "Entity": "Luxembourg", "Code": "LUX", "Year": 2023, "PopDensity": 258.3458 }, "geometry": { "type": "Point", "coordinates": [ 5.965223241738826, 49.765705317315273 ] } },
{ "type": "Feature", "properties": { "id": "LVA", "name": "Latvia", "Entity": "Latvia", "Code": "LVA", "Year": 2023, "PopDensity": 30.249077 }, "geometry": { "type": "Point", "coordinates": [ 24.833295923942458, 56.807175164937362 ] } },
{ "type": "Feature", "properties": { "id": "MAR", "name": "Morocco", "Entity": "Morocco", "Code": "MAR", "Year": 2023, "PopDensity": 84.500374 }, "geometry": { "type": "Point", "coordinates": [ -8.42047971881785, 29.885394456203414 ] } },
{ "type": "Feature", "properties": { "id": "MDA", "name": "Moldova", "Entity": "Moldova", "Code": "MDA", "Year": 2023, "PopDensity": 93.026115 }, "geometry": { "type": "Point", "coordinates": [ 28.410482745436717, 47.203676465912267 ] } },
{ "type": "Feature", "properties": { "id": "MDG", "name": "Madagascar", "Entity": "Madagascar", "Code": "MDG", "Year": 2023, "PopDensity": 53.61969 }, "geometry": { "type": "Point", "coordinates": [ 46.691170818879264, -19.356114029038594 ] } },
{ "type": "Feature", "properties": { "id": "MEX", "name": "Mexico", "Entity": "Mexico", "Code": "MEX", "Year": 2023, "PopDensity": 66.74028 }, "geometry": { "type": "Point", "coordinates": [ -102.576349512628397, 23.935371917330773 ] } },
{ "type": "Feature", "properties": { "id": "MKD", "name": "Macedonia", "Entity": "North Macedonia", "Code": "MKD", "Year": 2023, "PopDensity": 72.63283 }, "geometry": { "type": "Point", "coordinates": [ 21.697896904666251, 41.605929024780856 ] } },
{ "type": "Feature", "properties": { "id": "MLI", "name": "Mali", "Entity": "Mali", "Code": "MLI", "Year": 2023, "PopDensity": 19.479858 }, "geometry": { "type": "Point", "coordinates": [ -3.543294472195163, 17.267772216375366 ] } },
{ "type": "Feature", "properties": { "id": "MLT", "name": "Malta", "Entity": "Malta", "Code": "MLT", "Year": 2023, "PopDensity": 1665.5125 }, "geometry": { "type": "Point", "coordinates": [ 14.405220349501239, 35.92151327679818 ] } },
{ "type": "Feature", "properties": { "id": "MMR", "name": "Myanmar", "Entity": "Myanmar", "Code": "MMR", "Year": 2023, "PopDensity": 82.94207 }, "geometry": { "type": "Point", "coordinates": [ 96.505840911009429, 21.016999825030808 ] } },
{ "type": "Feature", "properties": { "id": "MNE", "name": "Montenegro", "Entity": "Montenegro", "Code": "MNE", "Year": 2023, "PopDensity": 47.10461 }, "geometry": { "type": "Point", "coordinates": [ 19.286181019707648, 42.789038313544879 ] } },
{ "type": "Feature", "properties": { "id": "MNG", "name": "Mongolia", "Entity": "Mongolia", "Code": "MNG", "Year": 2023, "PopDensity": 2.2034822 }, "geometry": { "type": "Point", "coordinates": [ 102.946404945893022, 46.823682495246146 ] } },
{ "type": "Feature", "properties": { "id": "MOZ", "name": "Mozambique", "Entity": "Mozambique", "Code": "MOZ", "Year": 2023, "PopDensity": 42.772152 }, "geometry": { "type": "Point", "coordinates": [ 35.472617063645508, -17.230446649442374 ] } },
{ "type": "Feature", "properties": { "id": "MRT", "name": "Mauritania", "Entity": "Mauritania", "Code": "MRT", "Year": 2023, "PopDensity": 4.8728437 }, "geometry": { "type": "Point", "coordinates": [ -10.326397038820698, 20.209267212839432 ] } },
{ "type": "Feature", "properties": { "id": "MWI", "name": "Malawi", "Entity": "Malawi", "Code": "MWI", "Year": 2023, "PopDensity": 223.84895 }, "geometry": { "type": "Point", "coordinates": [ 34.19360519275309, -13.172832818433942 ] } },
{ "type": "Feature", "properties": { "id": "MYS", "name": "Malaysia", "Entity": "Malaysia", "Code": "MYS", "Year": 2023, "PopDensity": 106.913086 }, "geometry": { "type": "Point", "coordinates": [ 109.698148493048677, 3.725588377792155 ] } },
{ "type": "Feature", "properties": { "id": "NAM", "name": "Namibia", "Entity": "Namibia", "Code": "NAM", "Year": 2023, "PopDensity": 3.5990975 }, "geometry": { "type": "Point", "coordinates": [ 17.156168162687653, -22.099776973240573 ] } },
{ "type": "Feature", "properties": { "id": "NCL", "name": "New Caledonia", "Entity": "New Caledonia", "Code": "NCL", "Year": 2023, "PopDensity": 15.857768 }, "geometry": { "type": "Point", "coordinates": [ 165.534474047499884, -21.261357478271123 ] } },
{ "type": "Feature", "properties": { "id": "NER", "name": "Niger", "Entity": "Niger", "Code": "NER", "Year": 2023, "PopDensity": 20.65198 }, "geometry": { "type": "Point", "coordinates": [ 9.324429403544739, 17.345552361272091 ] } },
{ "type": "Feature", "properties": { "id": "NGA", "name": "Nigeria", "Entity": "Nigeria", "Code": "NGA", "Year": 2023, "PopDensity": 250.2091 }, "geometry": { "type": "Point", "coordinates": [ 7.995127765434098, 9.54831838084792 ] } },
{ "type": "Feature", "properties": { "id": "NIC", "name": "Nicaragua", "Entity": "Nicaragua", "Code": "NIC", "Year": 2023, "PopDensity": 56.702824 }, "geometry": { "type": "Point", "coordinates": [ -85.020318346310177, 12.848190416553471 ] } },
{ "type": "Feature", "properties": { "id": "NLD", "name": "Netherlands", "Entity": "Netherlands", "Code": "NLD", "Year": 2023, "PopDensity": 537.3485 }, "geometry": { "type": "Point", "coordinates": [ 5.512217257118111, 52.298700259566616 ] } },
{ "type": "Feature", "properties": { "id": "NOR", "name": "Norway", "Entity": "Norway", "Code": "NOR", "Year": 2023, "PopDensity": 15.151305 }, "geometry": { "type": "Point", "coordinates": [ 15.468125839449151, 69.156856034732996 ] } },
{ "type": "Feature", "properties": { "id": "NPL", "name": "Nepal", "Entity": "Nepal", "Code": "NPL", "Year": 2023, "PopDensity": 207.14764 }, "geometry": { "type": "Point", "coordinates": [ 84.013173800217686, 28.239440047092941 ] } },
{ "type": "Feature", "properties": { "id": "NZL", "name": "New Zealand", "Entity": "New Zealand", "Code": "NZL", "Year": 2023, "PopDensity": 19.645433 }, "geometry": { "type": "Point", "coordinates": [ 172.701926094514732, -41.662578685033644 ] } },
{ "type": "Feature", "properties": { "id": "OMN", "name": "Oman", "Entity": "Oman", "Code": "OMN", "Year": 2023, "PopDensity": 16.314274 }, "geometry": { "type": "Point", "coordinates": [ 56.098672807132026, 20.611174318316188 ] } },
{ "type": "Feature", "properties": { "id": "PAK", "name": "Pakistan", "Entity": "Pakistan", "Code": "PAK", "Year": 2023, "PopDensity": 321.06747 }, "geometry": { "type": "Point", "coordinates": [ 69.413998086271263, 29.973460042550489 ] } },
{ "type": "Feature", "properties": { "id": "PAN", "name": "Panama", "Entity": "Panama", "Code": "PAN", "Year": 2023, "PopDensity": 60.107292 }, "geometry": { "type": "Point", "coordinates": [ -80.109164823050079, 8.530019285800913 ] } },
{ "type": "Feature", "properties": { "id": "PER", "name": "Peru", "Entity": "Peru", "Code": "PER", "Year": 2023, "PopDensity": 26.441889 }, "geometry": { "type": "Point", "coordinates": [ -74.391805877300882, -9.191562965945675 ] } },
{ "type": "Feature", "properties": { "id": "PHL", "name": "Philippines", "Entity": "Philippines", "Code": "PHL", "Year": 2023, "PopDensity": 385.32114 }, "geometry": { "type": "Point", "coordinates": [ 122.902672366514423, 11.763799338463123 ] } },
{ "type": "Feature", "properties": { "id": "PNG", "name": "Papua New Guinea", "Entity": "Papua New Guinea", "Code": "PNG", "Year": 2023, "PopDensity": 22.942274 }, "geometry": { "type": "Point", "coordinates": [ 145.317574534975194, -6.451644565279896 ] } },
{ "type": "Feature", "properties": { "id": "POL", "name": "Poland", "Entity": "Poland", "Code": "POL", "Year": 2023, "PopDensity": 126.63459 }, "geometry": { "type": "Point", "coordinates": [ 19.311014310865659, 52.148260305574063 ] } },
{ "type": "Feature", "properties": { "id": "PRI", "name": "Puerto Rico", "Entity": "Puerto Rico", "Code": "PRI", "Year": 2023, "PopDensity": 365.50427 }, "geometry": { "type": "Point", "coordinates": [ -66.479222573773171, 18.237224722054247 ] } },
{ "type": "Feature", "properties": { "id": "PRK", "name": "North Korea", "Entity": "North Korea", "Code": "PRK", "Year": 2023, "PopDensity": 219.40201 }, "geometry": { "type": "Point", "coordinates": [ 127.165016828934029, 40.143021045469283 ] } },
{ "type": "Feature", "properties": { "id": "PRT", "name": "Portugal", "Entity": "Portugal", "Code": "PRT", "Year": 2023, "PopDensity": 113.86569 }, "geometry": { "type": "Point", "coordinates": [ -8.055765653987546, 39.634049676914287 ] } },
{ "type": "Feature", "properties": { "id": "PRY", "name": "Paraguay", "Entity": "Paraguay", "Code": "PRY", "Year": 2023, "PopDensity": 17.22666 }, "geometry": { "type": "Point", "coordinates": [ -58.387387696475329, -23.248042095447325 ] } },
{ "type": "Feature", "properties": { "id": "QAT", "name": "Qatar", "Entity": "Qatar", "Code": "QAT", "Year": 2023, "PopDensity": 259.2765 }, "geometry": { "type": "Point", "coordinates": [ 51.18350260887302, 25.321851009758305 ] } },
{ "type": "Feature", "properties": { "id": "ROU", "name": "Romania", "Entity": "Romania", "Code": "ROU", "Year": 2023, "PopDensity": 83.094925 }, "geometry": { "type": "Point", "coordinates": [ 24.943252307608724, 45.857100987775276 ] } },
{ "type": "Feature", "properties": { "id": "RUS", "name": "Russia", "Entity": "Russia", "Code": "RUS", "Year": 2023, "PopDensity": 8.880849 }, "geometry": { "type": "Point", "coordinates": [ 96.875223337959739, 61.980840704682223 ] } },
{ "type": "Feature", "properties": { "id": "RWA", "name": "Rwanda", "Entity": "Rwanda", "Code": "RWA", "Year": 2023, "PopDensity": 565.6455 }, "geometry": { "type": "Point", "coordinates": [ 29.918965896965808, -2.013515564416977 ] } },
{ "type": "Feature", "properties": { "id": "ESH", "name": "Western Sahara", "Entity": "Western Sahara", "Code": "ESH", "Year": 2023, "PopDensity": 2.1794548 }, "geometry": { "type": "Point", "coordinates": [ -12.137831279237792, 24.291172849913757 ] } },
{ "type": "Feature", "properties": { "id": "SAU", "name": "Saudi Arabia", "Entity": "Saudi Arabia", "Code": "SAU", "Year": 2023, "PopDensity": 15.473995 }, "geometry": { "type": "Point", "coordinates": [ 44.51636382661863, 24.123289795583638 ] } },
{ "type": "Feature", "properties": { "id": "SDN", "name": "Sudan", "Entity": "Sudan", "Code": "SDN", "Year": 2023, "PopDensity": 26.789507 }, "geometry": { "type": "Point", "coordinates": [ 29.862604017208476, 15.990584955445737 ] } },
{ "type": "Feature", "properties": { "id": "SSD", "name": "South Sudan", "Entity": "South Sudan", "Code": "SSD", "Year": 2023, "PopDensity": 18.171907 }, "geometry": { "type": "Point", "coordinates": [ 30.198617471789241, 7.292889589795132 ] } },
{ "type": "Feature", "properties": { "id": "SEN", "name": "Senegal", "Entity": "Senegal", "Code": "SEN", "Year": 2023, "PopDensity": 93.89484 }, "geometry": { "type": "Point", "coordinates": [ -14.50980270579705, 14.354140014155805 ] } },
{ "type": "Feature", "properties": { "id": "SLB", "name": "Solomon Islands", "Entity": "Solomon Islands", "Code": "SLB", "Year": 2023, "PopDensity": 28.5821 }, "geometry": { "type": "Point", "coordinates": [ 159.966615416849919, -8.852497486452751 ] } },
{ "type": "Feature", "properties": { "id": "SLE", "name": "Sierra Leone", "Entity": "Sierra Leone", "Code": "SLE", "Year": 2023, "PopDensity": 117.214226 }, "geometry": { "type": "Point", "coordinates": [ -11.795257379763935, 8.530353735589902 ] } },
{ "type": "Feature", "properties": { "id": "SLV", "name": "El Salvador", "Entity": "El Salvador", "Code": "SLV", "Year": 2023, "PopDensity": 304.51874 }, "geometry": { "type": "Point", "coordinates": [ -88.872903244837772, 13.726091618589232 ] } },
{ "type": "Feature", "properties": { "id": "SOM", "name": "Somalia", "Entity": "Somalia", "Code": "SOM", "Year": 2023, "PopDensity": 29.264229 }, "geometry": { "type": "Point", "coordinates": [ 45.726700723866003, 4.752347709937349 ] } },
{ "type": "Feature", "properties": { "id": "SRB", "name": "Republic of Serbia", "Entity": "Serbia", "Code": "SRB", "Year": 2023, "PopDensity": 80.547066 }, "geometry": { "type": "Point", "coordinates": [ 20.819651225489295, 44.233037171353018 ] } },
{ "type": "Feature", "properties": { "id": "SUR", "name": "Suriname", "Entity": "Suriname", "Code": "SUR", "Year": 2023, "PopDensity": 4.031359 }, "geometry": { "type": "Point", "coordinates": [ -55.911456364650128, 4.120007947741116 ] } },
{ "type": "Feature", "properties": { "id": "SVK", "name": "Slovakia", "Entity": "Slovakia", "Code": "SVK", "Year": 2023, "PopDensity": 114.76824 }, "geometry": { "type": "Point", "coordinates": [ 19.507657094537777, 48.726711307505404 ] } },
{ "type": "Feature", "properties": { "id": "SVN", "name": "Slovenia", "Entity": "Slovenia", "Code": "SVN", "Year": 2023, "PopDensity": 105.20227 }, "geometry": { "type": "Point", "coordinates": [ 14.938152421437369, 46.125422102647427 ] } },
{ "type": "Feature", "properties": { "id": "SWE", "name": "Sweden", "Entity": "Sweden", "Code": "SWE", "Year": 2023, "PopDensity": 25.906994 }, "geometry": { "type": "Point", "coordinates": [ 16.613089113998559, 62.753745019347477 ] } },
{ "type": "Feature", "properties": { "id": "SWZ", "name": "Swaziland", "Entity": "Eswatini", "Code": "SWZ", "Year": 2023, "PopDensity": 71.54116 }, "geometry": { "type": "Point", "coordinates": [ 31.395255844605924, -26.489855180704044 ] } },
{ "type": "Feature", "properties": { "id": "SYR", "name": "Syria", "Entity": "Syria", "Code": "SYR", "Year": 2023, "PopDensity": 128.49002 }, "geometry": { "type": "Point", "coordinates": [ 38.544239373377401, 35.012614074829585 ] } },
{ "type": "Feature", "properties": { "id": "TCD", "name": "Chad", "Entity": "Chad", "Code": "TCD", "Year": 2023, "PopDensity": 15.342339 }, "geometry": { "type": "Point", "coordinates": [ 18.581329575702306, 15.328867455033203 ] } },
{ "type": "Feature", "properties": { "id": "TGO", "name": "Togo", "Entity": "Togo", "Code": "TGO", "Year": 2023, "PopDensity": 171.06718 }, "geometry": { "type": "Point", "coordinates": [ 0.996404137743079, 8.439541614235027 ] } },
{ "type": "Feature", "properties": { "id": "THA", "name": "Thailand", "Entity": "Thailand", "Code": "THA", "Year": 2023, "PopDensity": 140.3481 }, "geometry": { "type": "Point", "coordinates": [ 101.00613361307731, 15.016975159492544 ] } },
{ "type": "Feature", "properties": { "id": "TJK", "name": "Tajikistan", "Entity": "Tajikistan", "Code": "TJK", "Year": 2023, "PopDensity": 74.85992 }, "geometry": { "type": "Point", "coordinates": [ 71.034435361787175, 38.583081395033467 ] } },
{ "type": "Feature", "properties": { "id": "TKM", "name": "Turkmenistan", "Entity": "Turkmenistan", "Code": "TKM", "Year": 2023, "PopDensity": 15.671349 }, "geometry": { "type": "Point", "coordinates": [ 59.275430450118748, 39.091240095779703 ] } },
{ "type": "Feature", "properties": { "id": "TLS", "name": "East Timor", "Entity": "East Timor", "Code": "TLS", "Year": 2023, "PopDensity": 93.09294 }, "geometry": { "type": "Point", "coordinates": [ 125.966299910383356, -8.767760366825915 ] } },
{ "type": "Feature", "properties": { "id": "TTO", "name": "Trinidad and Tobago", "Entity": "Trinidad and Tobago", "Code": "TTO", "Year": 2023, "PopDensity": 292.96997 }, "geometry": { "type": "Point", "coordinates": [ -61.330366914449669, 10.428237089201879 ] } },
{ "type": "Feature", "properties": { "id": "TUN", "name": "Tunisia", "Entity": "Tunisia", "Code": "TUN", "Year": 2023, "PopDensity": 78.53008 }, "geometry": { "type": "Point", "coordinates": [ 9.534716183500798, 34.172939258953299 ] } },
{ "type": "Feature", "properties": { "id": "TUR", "name": "Turkey", "Entity": "Turkey", "Code": "TUR", "Year": 2023, "PopDensity": 113.3928 }, "geometry": { "type": "Point", "coordinates": [ 35.11690118892168, 39.068371751057299 ] } },
{ "type": "Feature", "properties": { "id": "TWN", "name": "Taiwan", "Entity": "Taiwan", "Code": "TWN", "Year": 2023, "PopDensity": 658.4904 }, "geometry": { "type": "Point", "coordinates": [ 120.974800735512531, 23.740964945371164 ] } },
{ "type": "Feature", "properties": { "id": "TZA", "name": "United Republic of Tanzania", "Entity": "Tanzania", "Code": "TZA", "Year": 2023, "PopDensity": 75.20615 }, "geometry": { "type": "Point", "coordinates": [ 34.752988128602865, -6.257732678257468 ] } },
{ "type": "Feature", "properties": { "id": "UGA", "name": "Uganda", "Entity": "Uganda", "Code": "UGA", "Year": 2023, "PopDensity": 242.65213 }, "geometry": { "type": "Point", "coordinates": [ 32.357548243356817, 1.295487011596622 ] } },
{ "type": "Feature", "properties": { "id": "UKR", "name": "Ukraine", "Entity": "Ukraine", "Code": "UKR", "Year": 2023, "PopDensity": 65.12398 }, "geometry": { "type": "Point", "coordinates": [ 31.369533007958442, 48.973017858225269 ] } },
{ "type": "Feature", "properties": { "id": "URY", "name": "Uruguay", "Entity": "Uruguay", "Code": "URY", "Year": 2023, "PopDensity": 19.358261 }, "geometry": { "type": "Point", "coordinates": [ -56.003278598342277, -32.780904514653514 ] } },
{ "type": "Feature", "properties": { "id": "USA", "name": "United States of America", "Entity": "United States", "Code": "USA", "Year": 2023, "PopDensity": 37.549095 }, "geometry": { "type": "Point", "coordinates": [ -112.599438333511742, 45.705629532237324 ] } },
{ "type": "Feature", "properties": { "id": "UZB", "name": "Uzbekistan", "Entity": "Uzbekistan", "Code": "UZB", "Year": 2023, "PopDensity": 80.9079 }, "geometry": { "type": "Point", "coordinates": [ 63.203639703135565, 41.748602626152604 ] } },
{ "type": "Feature", "properties": { "id": "VEN", "name": "Venezuela", "Entity": "Venezuela", "Code": "VEN", "Year": 2023, "PopDensity": 32.085323 }, "geometry": { "type": "Point", "coordinates": [ -66.163827294796221, 7.162132242283131 ] } },
{ "type": "Feature", "properties": { "id": "VNM", "name": "Vietnam", "Entity": "Vietnam", "Code": "VNM", "Year": 2023, "PopDensity": 320.1752 }, "geometry": { "type": "Point", "coordinates": [ 106.28584084813977, 16.657937717046636 ] } },
{ "type": "Feature", "properties": { "id": "VUT", "name": "Vanuatu", "Entity": "Vanuatu", "Code": "VUT", "Year": 2023, "PopDensity": 26.285645 }, "geometry": { "type": "Point", "coordinates": [ 167.073751250293441, -15.542677299284019 ] } },
{ "type": "Feature", "properties": { "id": "PSE", "name": "West Bank", "Entity": "Palestine", "Code": "PSE", "Year": 2023, "PopDensity": 897.7927 }, "geometry": { "type": "Point", "coordinates": [ 35.273319630613038, 31.941136592975468 ] } },
{ "type": "Feature", "properties": { "id": "YEM", "name": "Yemen", "Entity": "Yemen", "Code": "YEM", "Year": 2023, "PopDensity": 74.608025 }, "geometry": { "type": "Point", "coordinates": [ 47.535044576933089, 15.913231867023978 ] } },
{ "type": "Feature", "properties": { "id": "ZAF", "name": "South Africa", "Entity": "South Africa", "Code": "ZAF", "Year": 2023, "PopDensity": 52.10857 }, "geometry": { "type": "Point", "coordinates": [ 25.048013931521393, -28.947033272505536 ] } },
{ "type": "Feature", "properties": { "id": "ZMB", "name": "Zambia", "Entity": "Zambia", "Code": "ZMB", "Year": 2023, "PopDensity": 27.877653 }, "geometry": { "type": "Point", "coordinates": [ 27.727591839703326, -13.395067586158229 ] } },
{ "type": "Feature", "properties": { "id": "ZWE", "name": "Zimbabwe", "Entity": "Zimbabwe", "Code": "ZWE", "Year": 2023, "PopDensity": 42.240738 }, "geometry": { "type": "Point", "coordinates": [ 29.788548314172136, -18.90698790433024 ] } }
]
}
